TIME_StartTime,IMU_AccX,IMU_AccY,IMU_AccZ,IMU_GyroX,IMU_GyroY,IMU_GyroZ,IMU_MagX,IMU_MagY,IMU_MagZ,IMU_tA,IMU_tG,IMU_tM
83366323,-0.722328782082,-0.830524921417,-10.0981369019,0.0135792158544,0.0224004648626,0.00789275951684,0.0160816796124,-0.0928951278329,0.654753684998,0.0,0.0,0.0
83370437,-0.618649423122,-0.671513676643,-9.76774406433,-0.00867514964193,0.0358813665807,-0.00858340691775,0.0596825666726,-0.128924503922,0.630537509918,0.0,0.0,0.0
83374120,-0.406276941299,-0.678293585777,-9.5073633194,-0.0246465280652,0.0325952358544,-0.020837944001,0.0596825666726,-0.128924503922,0.630537509918,0.0,0.0,0.0
83374120,-0.406276941299,-0.678293585777,-9.5073633194,-0.0246465280652,0.0325952358544,-0.020837944001,0.0596825666726,-0.128924503922,0.630537509918,0.0,0.0,0.0
83378326,-0.339666306973,-0.849428653717,-9.32371520996,-0.0290519800037,0.0222860947251,-0.0240631457418,0.0596825666726,-0.128924503922,0.630537509918,0.0,0.0,0.0
83382162,-0.343499720097,-1.20020461082,-9.08033561707,-0.0177727304399,0.00385218602605,-0.0145278908312,0.0913756266236,-0.161742776632,0.574315726757,0.0,0.0,0.0
83387169,-0.548981904984,-1.3054933548,-9.31096553802,-0.00398427806795,-0.0209065098315,-0.00573487346992,0.0913756266236,-0.161742776632,0.574315726757,0.0,0.0,0.0
83390617,-0.688882231712,-1.47678184509,-9.54073619843,0.0107345255092,-0.0230895746499,0.00302323210053,0.113524883986,-0.18249168992,0.53475934267,0.0,0.0,0.0
83394601,-0.789659619331,-1.02865409851,-9.82213306427,0.0179635174572,-0.0266514029354,0.00596759887412,0.113524883986,-0.18249168992,0.53475934267,0.0,0.0,0.0
83398955,-0.919111847878,-0.973326325417,-10.2226552963,0.0211719628423,-0.00663665868342,0.0156437791884,0.120745882392,-0.181763514876,0.505958080292,0.0,0.0,0.0
83402547,-0.857256412506,-0.886204361916,-10.0480241776,0.00757635664195,0.0160236172378,0.00246539851651,0.120745882392,-0.181763514876,0.505958080292,0.0,0.0,0.0
83406626,-0.726257622242,-0.632822811604,-9.80025959015,-0.0145005248487,0.0274815708399,-0.0143223330379,0.120745882392,-0.181763514876,0.505958080292,0.0,0.0,0.0
83411289,-0.471100717783,-0.729044258595,-9.60549926758,-0.0250223204494,0.0262908283621,-0.0206624586135,0.122249670327,-0.19258916378,0.512451529503,0.0,0.0,0.0
83415105,-0.446576476097,-0.852164149284,-9.41851902008,-0.0248541180044,0.0164455454797,-0.0192273929715,0.122249670327,-0.19258916378,0.512451529503,0.0,0.0,0.0
83415105,-0.446576476097,-0.852164149284,-9.41851902008,-0.0248541180044,0.0164455454797,-0.0192273929715,0.122249670327,-0.19258916378,0.512451529503,0.0,0.0,0.0
83418576,-0.424440771341,-1.03374946117,-9.20596218109,-0.0142761096358,-0.00424083368853,-0.0139256361872,0.109087921679,-0.190701514482,0.481745004654,0.0,0.0,0.0
83423195,-0.66449034214,-1.28217446804,-9.63607215881,0.00435284152627,-0.0186517052352,0.00207143113948,0.109087921679,-0.190701514482,0.481745004654,0.0,0.0,0.0
83426606,-0.713915109634,-1.32536995411,-9.7330904007,0.0136766349897,-0.010082995519,0.00323583628051,0.109087921679,-0.190701514482,0.481745004654,0.0,0.0,0.0
83430717,-0.872009634972,-1.02149534225,-10.0055236816,0.026508430019,-0.0111345192418,0.017262743786,0.116242222488,-0.168980538845,0.487220197916,0.0,0.0,0.0
83435234,-0.826268672943,-0.899145901203,-10.2043972015,0.0235224999487,0.0110058253631,0.0168874710798,0.116242222488,-0.168980538845,0.487220197916,0.0,0.0,0.0
83438661,-0.688432991505,-0.740721583366,-9.85517787933,0.000771655177232,0.0288527347147,-0.000797681277618,0.122811280191,-0.177083134651,0.50957518816,0.0,0.0,0.0
83442635,-0.491134941578,-0.62801361084,-9.66065979004,-0.0192113555968,0.034685947001,-0.0163799487054,0.122811280191,-0.177083134651,0.50957518816,0.0,0.0,0.0
83447328,-0.186428874731,-0.813850522041,-9.33777427673,-0.0276620648801,0.0271417535841,-0.0233684200794,0.122811280191,-0.177083134651,0.50957518816,0.0,0.0,0.0
83450560,-0.207804590464,-1.02542507648,-9.16934299469,-0.0243310946971,0.00923640932888,-0.0196991655976,0.12465043366,-0.184346631169,0.507677137852,0.0,0.0,0.0
83454595,-0.357461005449,-1.37581551075,-9.22464179993,-0.00941766705364,-0.0137913525105,-0.00810342095792,0.12465043366,-0.184346631169,0.507677137852,0.0,0.0,0.0
83459196,-0.651556611061,-1.56385016441,-9.48027324677,0.00292379665188,-0.0248657241464,-0.00149539008271,0.12217874825,-0.190065935254,0.505618095398,0.0,0.0,0.0
83462959,-0.775369882584,-1.25035667419,-9.66298675537,0.0131944837049,-0.023129651323,-0.00371579430066,0.12217874825,-0.190065935254,0.505618095398,0.0,0.0,0.0
83466621,-0.99768948555,-1.04233813286,-10.0655527115,0.0256480071694,-0.0199515260756,0.0161678045988,0.12217874825,-0.190065935254,0.505618095398,0.0,0.0,0.0
83471185,-1.02756953239,-0.842020630836,-10.2144937515,0.0176181998104,0.00444257957861,0.0121641410515,0.116872452199,-0.181145057082,0.499096244574,0.0,0.0,0.0
83474954,-0.947013020515,-0.667617619038,-9.87247562408,-0.00209930166602,0.0220052935183,-0.00607842113823,0.116872452199,-0.181145057082,0.499096244574,0.0,0.0,0.0
83478720,-0.58605659008,-0.678051769733,-9.67778682709,-0.0205157231539,0.0254759453237,-0.0144855519757,0.105703406036,-0.186247467995,0.530129790306,0.0,0.0,0.0
83483819,-0.317908704281,-0.616313397884,-9.51198577881,-0.0281910821795,0.0162917375565,-0.0226244051009,0.105703406036,-0.186247467995,0.530129790306,0.0,0.0,0.0
83486721,-0.358121842146,-0.968172669411,-9.44777202606,-0.0169988013804,0.00723547302186,-0.00926809385419,0.105703406036,-0.186247467995,0.530129790306,0.0,0.0,0.0
83490535,-0.428007602692,-1.317014575,-9.41157341003,-0.00819873809814,-0.00531880138442,-0.0110886832699,0.0779796168208,-0.175405591726,0.537320375443,0.0,0.0,0.0
83490535,-0.428007602692,-1.317014575,-9.41157341003,-0.00819873809814,-0.00531880138442,-0.0110886832699,0.0779796168208,-0.175405591726,0.537320375443,0.0,0.0,0.0
83495378,-0.645906686783,-1.33373904228,-9.6854467392,0.00488739879802,-0.0120879709721,-0.00288088992238,0.0779796168208,-0.175405591726,0.537320375443,0.0,0.0,0.0
83498669,-0.74168998003,-1.17473971844,-9.91509246826,0.0199125427753,-0.00662191258743,0.0101138930768,0.0534113012254,-0.131206378341,0.579888641834,0.0,0.0,0.0
83502619,-0.906215429306,-0.949307441711,-9.96019744873,0.0213636495173,0.00466927094385,0.0149096436799,0.0534113012254,-0.131206378341,0.579888641834,0.0,0.0,0.0
83507316,-0.789851367474,-0.756415128708,-9.86975002289,0.00955009460449,0.0203257147223,0.00430904282257,0.0534113012254,-0.131206378341,0.579888641834,0.0,0.0,0.0
83510831,-0.580124974251,-0.640300810337,-9.67037582397,-0.00725979218259,0.027017204091,-0.00715633342043,0.0340073630214,-0.112032569945,0.656008064747,0.0,0.0,0.0
83514661,-0.253416150808,-0.758921504021,-9.46809387207,-0.0234549026936,0.0218837242573,-0.0177478641272,0.0340073630214,-0.112032569945,0.656008064747,0.0,0.0,0.0
83519000,-0.174484789371,-0.982174038887,-9.34837436676,-0.0219670739025,0.0111660892144,-0.0172222424299,0.00797439925373,-0.096908763051,0.703994274139,0.0,0.0,0.0
83522673,-0.243772119284,-1.38560545444,-9.2767124176,-0.0117603400722,-0.00202511553653,-0.00875997263938,0.00797439925373,-0.096908763051,0.703994274139,0.0,0.0,0.0
83526468,-0.452672123909,-1.53125917912,-9.35224056244,-0.00498332083225,-0.0177838504314,-0.0100608794019,0.00797439925373,-0.096908763051,0.703994274139,0.0,0.0,0.0
83532375,-0.738787591457,-1.28647637367,-9.61424636841,0.00645059114322,-0.0204947665334,-0.00454043969512,0.000875639147125,-0.0884406641126,0.712010800838,0.0,0.0,0.0
83538888,-1.13999521732,-0.842199146748,-9.95829200745,0.0165127404034,-0.00654166378081,0.00734172249213,0.0215529669076,-0.101383760571,0.677171349525,0.0,0.0,0.0
83543221,-1.00805616379,-0.599804401398,-9.8751449585,0.0042046229355,0.00764908269048,0.00155818532221,0.0215529669076,-0.101383760571,0.677171349525,0.0,0.0,0.0
83543221,-1.00805616379,-0.599804401398,-9.8751449585,0.0042046229355,0.00764908269048,0.00155818532221,0.0215529669076,-0.101383760571,0.677171349525,0.0,0.0,0.0
83546480,-0.753644824028,-0.683677971363,-9.79893684387,-0.0101487692446,0.0161055549979,-0.00416088430211,0.0215529669076,-0.101383760571,0.677171349525,0.0,0.0,0.0
83550507,-0.466482311487,-0.771782457829,-9.86371994019,-0.0206280741841,0.0150815071538,-0.0113897584379,0.0573579035699,-0.142005383968,0.593800008297,0.0,0.0,0.0
83555231,-0.344620287418,-1.04131746292,-9.58711719513,-0.0124323265627,0.016980169341,-0.00571387493983,0.0573579035699,-0.142005383968,0.593800008297,0.0,0.0,0.0
83559333,-0.352734148502,-1.18327772617,-9.40856838226,-0.00928520224988,0.0068645416759,-0.0137539403513,0.0891333520412,-0.178764626384,0.488531976938,0.0,0.0,0.0
83562760,-0.507470548153,-1.19794487953,-9.62961769104,-0.00100610195659,-0.00306581170298,-0.00745305465534,0.0891333520412,-0.178764626384,0.488531976938,0.0,0.0,0.0
83586611,-0.194921240211,-0.943077206612,-9.39869880676,-0.0186516363174,0.010858620517,-0.0146232200786,0.0520978569984,-0.143081396818,0.575453281403,0.0,0.0,0.0
83592172,-0.191995546222,-1.3114335537,-9.36690807343,-0.0123997218907,-0.00254322425462,-0.011438107118,0.00111061264761,-0.100460864604,0.669524252415,0.0,0.0,0.0
83595303,-0.503639936447,-1.30520498753,-9.49465465546,-0.00660192780197,-0.0118109965697,-0.0129982456565,0.00111061264761,-0.100460864604,0.669524252415,0.0,0.0,0.0
83599461,-0.860545635223,-1.18855941296,-9.7091178894,0.00677546160296,-0.0127587737516,-0.00394610315561,0.066219471395,-0.147303134203,0.576528728008,0.0,0.0,0.0
83604139,-1.08164286613,-1.04609668255,-9.79087638855,0.0131812412292,-0.0126246511936,0.00531431799755,0.066219471395,-0.147303134203,0.576528728008,0.0,0.0,0.0
83604139,-1.08164286613,-1.04609668255,-9.79087638855,0.0131812412292,-0.0126246511936,0.00531431799755,0.066219471395,-0.147303134203,0.576528728008,0.0,0.0,0.0
83607455,-1.1619784832,-0.803582072258,-9.8537569046,0.00825636368245,-0.00397555250674,0.000731490901671,0.066219471395,-0.147303134203,0.576528728008,0.0,0.0,0.0
83611303,-1.09958648682,-0.752921581268,-9.93934345245,0.00192479137331,0.00601396849379,0.00416392274201,0.093711361289,-0.196352541447,0.481869578362,0.0,0.0,0.0
83616004,-0.731007039547,-0.772395074368,-9.85223197937,-0.00814477074891,0.014824016951,0.00128541362938,0.093711361289,-0.196352541447,0.481869578362,0.0,0.0,0.0
83619413,-0.421011030674,-0.762082755566,-9.73624229431,-0.0137836495414,0.0156351029873,-0.00492625497282,0.0443049110472,-0.142376288772,0.524727702141,0.0,0.0,0.0
83623341,-0.218455284834,-1.083111763,-9.66119384766,-0.00830329023302,0.0170776415616,-0.00430962117389,0.0443049110472,-0.142376288772,0.524727702141,0.0,0.0,0.0
83628062,-0.313200235367,-1.19741272926,-9.59083557129,-0.0074444944039,0.00982982944697,-0.0127956746146,0.0443049110472,-0.142376288772,0.524727702141,0.0,0.0,0.0
83631354,-0.516318798065,-1.1350325346,-9.6759147644,0.000611680559814,0.00618142308667,-0.00705393310636,-0.00268586259335,-0.0696263760328,0.645655333996,0.0,0.0,0.0
83635445,-0.655142664909,-1.04674291611,-9.63907718658,0.00715047074482,0.00732449721545,-0.00127636454999,-0.00268586259335,-0.0696263760328,0.645655333996,0.0,0.0,0.0
83639699,-0.843450188637,-0.937559902668,-9.56100654602,0.00534689659253,0.00332292192616,-0.00188196147792,0.0274518691003,-0.0930788367987,0.62681889534,0.0,0.0,0.0
83643469,-0.8891903162,-0.788107633591,-9.60089874268,0.00109448458534,-1.12161637844e-06,-0.00030508582131,0.0274518691003,-0.0930788367987,0.62681889534,0.0,0.0,0.0
83647609,-0.69164955616,-0.884517967701,-9.64970111847,-0.00357408449054,0.00360536412336,0.00143018353265,0.0274518691003,-0.0930788367987,0.62681889534,0.0,0.0,0.0
83647609,-0.69164955616,-0.884517967701,-9.64970111847,-0.00357408449054,0.00360536412336,0.00143018353265,0.0274518691003,-0.0930788367987,0.62681889534,0.0,0.0,0.0
83652307,-0.355637967587,-1.01431632042,-9.63803291321,-0.0112696113065,0.0058041322045,-0.00345400045626,0.0968241542578,-0.168165072799,0.488712370396,0.0,0.0,0.0
83655581,-0.200747907162,-1.15857672691,-9.52343940735,-0.00767276715487,0.00416928855702,-0.00450291763991,0.0968241542578,-0.168165072799,0.488712370396,0.0,0.0,0.0
83659395,-0.233130380511,-1.33175361156,-9.63775730133,-0.00492299348116,-0.00239073648117,-0.00646753003821,0.0831099450588,-0.153113141656,0.502466261387,0.0,0.0,0.0
83663624,-0.502531886101,-1.21612596512,-9.58294010162,-0.00448705954477,0.00137992436066,-0.0152608398348,0.0831099450588,-0.153113141656,0.502466261387,0.0,0.0,0.0
83667473,-0.758508980274,-1.01514136791,-9.52514457703,0.000326539535308,-0.00181038014125,-0.0125024197623,0.0831099450588,-0.153113141656,0.502466261387,0.0,0.0,0.0
83671550,-1.02578854561,-0.875232815742,-9.58026695251,0.00111935380846,-0.0100674256682,-0.00813321582973,0.0166269224137,-0.0787169486284,0.650301218033,0.0,0.0,0.0
83676310,-1.20294761658,-0.707630932331,-9.70828819275,-0.000532712263521,-0.0152347218245,-0.00349925225601,0.0166269224137,-0.0787169486284,0.650301218033,0.0,0.0,0.0
83680088,-1.15859079361,-0.829004049301,-9.97501659393,0.000838396139443,-0.00479596061632,0.00615600449964,0.042131587863,-0.101805746555,0.608400166035,0.0,0.0,0.0
83683336,-0.751453518867,-1.02866208553,-9.94695568085,-0.00323724118061,0.00673539564013,0.00377567764372,0.042131587863,-0.101805746555,0.608400166035,0.0,0.0,0.0
83688031,-0.41593965888,-1.02637195587,-9.99862289429,-0.00120879744645,0.0147816510871,0.00293912226334,0.042131587863,-0.101805746555,0.608400166035,0.0,0.0,0.0
83691432,-0.224975436926,-1.15322709084,-9.89924621582,0.0020668329671,0.024500079453,0.00171257241163,0.10718395561,-0.152128994465,0.469258069992,0.0,0.0,0.0
83695406,-0.259633928537,-1.06988012791,-9.65020751953,-0.00248028361239,0.0269077960402,-0.00720484601334,0.10718395561,-0.152128994465,0.469258069992,0.0,0.0,0.0
83699920,-0.338822841644,-0.882240653038,-9.4092206955,-0.00490721873939,0.0228001382202,-0.0146682793275,0.0540317632258,-0.104914583266,0.582683265209,0.0,0.0,0.0
83703377,-0.486450821161,-0.858969330788,-9.25043773651,-0.00668475776911,0.00644644908607,-0.0116638503969,0.0540317632258,-0.104914583266,0.582683265209,0.0,0.0,0.0
83703377,-0.486450821161,-0.858969330788,-9.25043773651,-0.00668475776911,0.00644644908607,-0.0116638503969,0.0540317632258,-0.104914583266,0.582683265209,0.0,0.0,0.0
83707428,-0.743918180466,-0.840132176876,-9.39389228821,-0.00881196651608,-0.0105624599382,-0.0127409845591,0.0540317632258,-0.104914583266,0.582683265209,0.0,0.0,0.0
83712196,-0.949766039848,-1.08043777943,-9.57814311981,-0.00152490858454,-0.0105751659721,0.00276491069235,0.0254311598837,-0.0743040293455,0.684491634369,0.0,0.0,0.0
83715927,-0.704945504665,-1.20781850815,-9.74030303955,-0.000779598020017,-0.00917461048812,0.00244843889959,0.0254311598837,-0.0743040293455,0.684491634369,0.0,0.0,0.0
83719411,-0.518418729305,-1.2139736414,-9.84473133087,0.00200425437652,-0.00172399985604,0.00521931517869,0.107519701123,-0.166854262352,0.534169256687,0.0,0.0,0.0
83724703,-0.365889817476,-1.18609070778,-9.93807792664,0.00754057569429,0.00733912503347,0.00534104323015,0.107519701123,-0.166854262352,0.534169256687,0.0,0.0,0.0
83727492,-0.355267167091,-1.08010292053,-9.67608356476,5.91481011725e-06,0.0132355615497,-0.00455871783197,0.107519701123,-0.166854262352,0.534169256687,0.0,0.0,0.0
83731324,-0.489809006453,-0.78160995245,-9.50432300568,-0.00610120175406,0.0113424826413,-0.0170507188886,0.0765502303839,-0.158552378416,0.55427724123,0.0,0.0,0.0
83736212,-0.75044554472,-0.760849356651,-9.38909053802,-0.0145796993747,-0.000305582914734,-0.0164985843003,0.0765502303839,-0.158552378416,0.55427724123,0.0,0.0,0.0
83739796,-1.01868617535,-0.769202649593,-9.54250144958,-0.01324193459,-0.0134465908632,-0.0164808966219,0.00718075362965,-0.0892739519477,0.708936095238,0.0,0.0,0.0
83743311,-1.32812070847,-1.01250588894,-9.84288787842,-0.00369834830053,-0.0122840413824,0.000782904098742,0.00718075362965,-0.0892739519477,0.708936095238,0.0,0.0,0.0
83748085,-1.03418719769,-1.2738878727,-9.75982570648,0.00178818136919,-0.00177766825072,0.00449646543711,0.00718075362965,-0.0892739519477,0.708936095238,0.0,0.0,0.0
83748085,-1.03418719769,-1.2738878727,-9.75982570648,0.00178818136919,-0.00177766825072,0.00449646543711,0.00718075362965,-0.0892739519477,0.708936095238,0.0,0.0,0.0
83751469,-0.728452444077,-0.978785991669,-9.88555812836,0.00349848624319,5.78121398576e-05,0.00566320493817,0.0729366838932,-0.162080109119,0.539891242981,0.0,0.0,0.0
83755328,-0.425611644983,-1.11967051029,-10.1796340942,0.0172741990536,0.0177453849465,0.0207830946892,0.0729366838932,-0.162080109119,0.539891242981,0.0,0.0,0.0
83768509,-0.145829349756,-0.704520881176,-9.28481292725,-0.0178122669458,0.0130179030821,-0.0199879352003,0.000963895057794,-0.0882037580013,0.679810523987,0.0,0.0,0.0
83772421,-0.620674550533,-0.780290842056,-9.35980415344,-0.0237327124923,-0.00530066853389,-0.0270698722452,0.000963895057794,-0.0882037580013,0.679810523987,0.0,0.0,0.0
83776547,-0.918998062611,-1.28261327744,-9.43246364594,-0.0112599683926,-0.00816723890603,-0.00584183260798,0.000963895057794,-0.0882037580013,0.679810523987,0.0,0.0,0.0
83784723,-0.77596116066,-1.1910700798,-9.88744163513,0.0125975180417,-0.0163740850985,0.0131167192012,0.0879350528121,-0.175607204437,0.5358928442,0.0,0.0,0.0
83788358,-0.599697113037,-1.33977484703,-9.93798732758,0.0217368435115,0.00668884441257,0.018820066005,0.0380458049476,-0.133342146873,0.556657195091,0.0,0.0,0.0
83792583,-0.498910754919,-0.971715509892,-9.81877040863,0.00975784379989,0.0118555966765,0.00353879341856,0.0380458049476,-0.133342146873,0.556657195091,0.0,0.0,0.0
83796321,-0.433320790529,-0.675844967365,-9.75375652313,0.00498796533793,0.0157965794206,-0.00696853594854,0.0380458049476,-0.133342146873,0.556657195091,0.0,0.0,0.0
83800478,-0.453536391258,-0.557947695255,-9.46363925934,-0.0154985133559,0.00727089401335,-0.0206842795014,0.0147264609113,-0.0779421851039,0.646293222904,0.0,0.0,0.0
83804892,-0.888892591,-0.694125711918,-9.50415229797,-0.0243755523115,-0.0059037450701,-0.0241920631379,0.0147264609113,-0.0779421851039,0.646293222904,0.0,0.0,0.0
83808446,-1.08111608028,-1.09730780125,-9.67265415192,-0.0179598480463,-0.00766834337264,-0.0112703870982,0.0986252352595,-0.184787169099,0.466863393784,0.0,0.0,0.0
83808446,-1.08111608028,-1.09730780125,-9.67265415192,-0.0179598480463,-0.00766834337264,-0.0112703870982,0.0986252352595,-0.184787169099,0.466863393784,0.0,0.0,0.0
83812334,-1.01004242897,-1.24382698536,-9.76502227783,-0.00785486306995,-0.0106888636947,-0.00580992782488,0.0986252352595,-0.184787169099,0.466863393784,0.0,0.0,0.0
83816417,-0.96388989687,-1.16555786133,-9.90369224548,0.0102112069726,-0.000654381758068,0.00988448876888,0.0986252352595,-0.184787169099,0.466863393784,0.0,0.0,0.0
83820423,-0.656861007214,-1.24439561367,-9.94972324371,0.0226941928267,0.0140106389299,0.0193743240088,0.0125923994929,-0.0775588899851,0.603497266769,0.0,0.0,0.0
83824128,-0.401863276958,-0.91178303957,-9.93468761444,0.0124721443281,0.0269295815378,0.00864539016038,0.0125923994929,-0.0775588899851,0.603497266769,0.0,0.0,0.0
83828856,-0.155843272805,-0.620928645134,-9.77411651611,0.0105203092098,0.0314990989864,0.00622977223247,0.0782127082348,-0.103802852333,0.576059699059,0.0,0.0,0.0
83832414,-0.128224015236,-0.625212192535,-9.39012908936,-0.00876219943166,0.0191766563803,-0.0101671740413,0.0782127082348,-0.103802852333,0.576059699059,0.0,0.0,0.0
83836224,-0.296207249165,-0.761687219143,-9.21849727631,-0.0256377756596,0.00198162603192,-0.0262132771313,0.0782127082348,-0.103802852333,0.576059699059,0.0,0.0,0.0
83840882,-0.599211752415,-1.0530153513,-9.55676555634,-0.0245296079665,-0.0105952695012,-0.0187908783555,0.0795961096883,-0.143277227879,0.546532452106,0.0,0.0,0.0
83844236,-0.748479127884,-1.55764222145,-9.38339138031,-0.0157573018223,-0.0114807160571,-0.0128668332472,0.0795961096883,-0.143277227879,0.546532452106,0.0,0.0,0.0
83848218,-0.875074982643,-1.32875430584,-9.48186016083,-0.00356621295214,-0.0164844486862,-0.00791918113828,0.0345071256161,-0.0852937996387,0.671595513821,0.0,0.0,0.0
83848218,-0.875074982643,-1.32875430584,-9.48186016083,-0.00356621295214,-0.0164844486862,-0.00791918113828,0.0345071256161,-0.0852937996387,0.671595513821,0.0,0.0,0.0
83853148,-0.843625724316,-1.46642076969,-9.80114078522,0.0192074812949,-0.00514517957345,0.011922808364,0.0345071256161,-0.0852937996387,0.671595513821,0.0,0.0,0.0
83856429,-0.763988018036,-1.06458425522,-9.91646003723,0.0171350706369,0.00519856577739,0.00532155297697,0.0345071256161,-0.0852937996387,0.671595513821,0.0,0.0,0.0
83860209,-0.64813119173,-0.654766082764,-9.86828327179,0.0193116664886,0.00900859199464,0.0112287346274,0.116842441261,-0.178396642208,0.496205151081,0.0,0.0,0.0
83864520,-0.478602230549,-0.624649703503,-9.67869663239,0.00429913820699,0.00302664143965,-0.000818338536192,0.116842441261,-0.178396642208,0.496205151081,0.0,0.0,0.0
83868236,-0.607026457787,-0.558224737644,-9.65205574036,-0.0170220993459,-0.00140435446519,-0.0174820963293,0.00866560917348,-0.0990313664079,0.689183235168,0.0,0.0,0.0
83872368,-0.693026185036,-0.993704497814,-9.72031593323,-0.0257782209665,0.000811958161648,-0.015855755657,0.00866560917348,-0.0990313664079,0.689183235168,0.0,0.0,0.0
83876911,-0.828940927982,-1.30393350124,-9.59838962555,-0.0259189866483,-0.000736561196391,-0.0192857347429,0.00866560917348,-0.0990313664079,0.689183235168,0.0,0.0,0.0
83880573,-0.958885610104,-1.26367914677,-9.75771617889,-0.00719491159543,0.00270973495208,-0.00444004638121,0.0764359757304,-0.164994210005,0.53512853384,0.0,0.0,0.0
83884701,-0.869849205017,-1.35388505459,-9.7729139328,0.0137111153454,0.0203059948981,0.00943926908076,0.0764359757304,-0.164994210005,0.53512853384,0.0,0.0,0.0
83892341,-0.329964369535,-0.659112632275,-9.77909946442,0.0258889198303,0.0154399890453,0.0201091784984,0.021176405251,-0.119826085865,0.567624807358,0.0,0.0,0.0
83896179,-0.0664027631283,-0.598497390747,-9.49139118195,0.00646924832836,0.00880204606801,0.00832670927048,0.021176405251,-0.119826085865,0.567624807358,0.0,0.0,0.0
83901398,-0.123287066817,-0.675267577171,-9.56718444824,-0.0141243319958,0.0029555526562,-0.0106879044324,0.0508247204125,-0.128661230206,0.615604221821,0.0,0.0,0.0
83901398,-0.123287066817,-0.675267577171,-9.56718444824,-0.0141243319958,0.0029555526562,-0.0106879044324,0.0508247204125,-0.128661230206,0.615604221821,0.0,0.0,0.0
83904312,-0.256819039583,-1.14109027386,-9.48210048676,-0.0255067180842,0.00386952864937,-0.0194730348885,0.0508247204125,-0.128661230206,0.615604221821,0.0,0.0,0.0
83908186,-0.396675050259,-1.336566329,-9.34560203552,-0.0329476259649,-0.00993935856968,-0.0297588836402,0.0577156171203,-0.155099198222,0.538716852665,0.0,0.0,0.0
83912691,-0.803480744362,-1.3530254364,-9.630235672,-0.0145886521786,-0.00668564997613,-0.0142275961116,0.0577156171203,-0.155099198222,0.538716852665,0.0,0.0,0.0
83916137,-0.987470030785,-1.51015639305,-9.56319332123,0.00653259409592,0.00421842187643,-0.00234978296794,0.0577156171203,-0.155099198222,0.538716852665,0.0,0.0,0.0
83920242,-0.967250049114,-0.962229073048,-9.69947624207,0.0182804260403,-0.00509064272046,0.000144486999488,0.0213236082345,-0.0898603275418,0.630651533604,0.0,0.0,0.0
83925805,-0.756982982159,-0.683301150799,-9.74975967407,0.0265300925821,-0.00792214926332,0.0203017517924,0.0213236082345,-0.0898603275418,0.630651533604,0.0,0.0,0.0
83929150,-0.677634716034,-0.614246726036,-9.75589752197,0.00593108776957,-0.00518902530894,0.00828807801008,0.090832516551,-0.167729690671,0.481285780668,0.0,0.0,0.0
83933066,-0.69878077507,-0.78705060482,-9.80924510956,-0.0119564300403,0.00292911799625,-0.00464516784996,0.090832516551,-0.167729690671,0.481285780668,0.0,0.0,0.0
83937362,-0.524208545685,-0.950280845165,-9.75954532623,-0.0249483529478,0.00257750647143,-0.019229484722,0.090832516551,-0.167729690671,0.481285780668,0.0,0.0,0.0
83941516,-0.698301196098,-1.15797257423,-9.94858837128,-0.0218530036509,0.00704335700721,-0.0176456272602,0.0191657934338,-0.0817294493318,0.650692462921,0.0,0.0,0.0
83944987,-0.864146411419,-1.29997646809,-9.8076133728,-0.006053192541,0.0232696589082,-0.0112990476191,0.0191657934338,-0.0817294493318,0.650692462921,0.0,0.0,0.0
83944987,-0.864146411419,-1.29997646809,-9.8076133728,-0.006053192541,0.0232696589082,-0.0112990476191,0.0191657934338,-0.0817294493318,0.650692462921,0.0,0.0,0.0
83949367,-0.841649889946,-1.11021900177,-9.58745288849,0.00984507799149,0.0252641662955,-0.00365050812252,0.0969394519925,-0.150721058249,0.483539670706,0.0,0.0,0.0
83953122,-0.601218700409,-0.846826612949,-9.62438106537,0.0210872124881,0.0159535929561,0.00833190046251,0.0969394519925,-0.150721058249,0.483539670706,0.0,0.0,0.0
83956990,-0.347182005644,-0.733109414577,-9.4645690918,0.0121109606698,0.00674064923078,0.0106061184779,0.0969394519925,-0.150721058249,0.483539670706,0.0,0.0,0.0
83961885,-0.300417482853,-0.868966937065,-9.49514865875,-0.000974982511252,-0.001854686765,0.00556685449556,0.118048347533,-0.18114925921,0.514702022076,0.0,0.0,0.0
83965490,-0.288757443428,-1.11454904079,-9.60639381409,-0.0109884841368,-0.0037895059213,-0.00495966430753,0.118048347533,-0.18114925921,0.514702022076,0.0,0.0,0.0
83968984,-0.17815297842,-1.21169149876,-9.58384990692,-0.0194016564637,-0.00852382741868,-0.0165528431535,0.00693808915094,-0.0839028432965,0.701837480068,0.0,0.0,0.0
83993098,-0.946933925152,-0.84157294035,-9.72158050537,-0.00142883101944,-0.0147182624787,0.00356766395271,0.000384507497074,-0.107367165387,0.672832548618,0.0,0.0,0.0
83997356,-0.832903683186,-1.03667604923,-9.92737007141,-0.0054615214467,-0.0108908424154,0.000985095975921,0.000384507497074,-0.107367165387,0.672832548618,0.0,0.0,0.0
84001187,-0.783644735813,-1.20119214058,-10.2516765594,-0.00624048663303,0.00203983974643,-5.37240666745e-05,0.0788901597261,-0.179574117064,0.478516876698,0.0,0.0,0.0
84005077,-0.689139842987,-1.19507372379,-10.002325058,-0.0023136199452,0.0253128223121,-0.00254920963198,0.0788901597261,-0.179574117064,0.478516876698,0.0,0.0,0.0
84009715,-0.633396625519,-1.00173342228,-9.65582370758,0.00303812767379,0.0326145589352,-0.00789531134069,0.00271957786754,-0.0668157190084,0.653588235378,0.0,0.0,0.0
84009715,-0.633396625519,-1.00173342228,-9.65582370758,0.00303812767379,0.0326145589352,-0.00789531134069,0.00271957786754,-0.0668157190084,0.653588235378,0.0,0.0,0.0
84013151,-0.471593648195,-0.74466586113,-9.57681083679,0.00348646729253,0.0311105642468,-0.00650922162458,0.00271957786754,-0.0668157190084,0.653588235378,0.0,0.0,0.0
84016936,-0.303638905287,-0.659834563732,-9.3063621521,0.000749810482375,0.0187858100981,-0.00307297613472,0.00271957786754,-0.0668157190084,0.653588235378,0.0,0.0,0.0
84021703,-0.422848790884,-0.810813605785,-9.20914840698,-0.00713853584602,0.000199493340915,-0.00414402736351,0.0987196490169,-0.173534631729,0.484100580215,0.0,0.0,0.0
84025166,-0.418977200985,-1.10352647305,-9.32943725586,-0.00742561742663,-0.0160581804812,-0.00103925191797,0.0987196490169,-0.173534631729,0.484100580215,0.0,0.0,0.0
84028975,-0.488077610731,-1.29164731503,-9.77684783936,-0.00851754285395,-0.0199004802853,-0.00377870351076,0.0272035915405,-0.086507178843,0.659882724285,0.0,0.0,0.0
84033674,-0.553755939007,-1.50897216797,-10.0347070694,0.00195025245193,-0.00241728522815,0.00152746750973,0.0272035915405,-0.086507178843,0.659882724285,0.0,0.0,0.0
84036886,-0.539458692074,-1.34154260159,-9.60940647125,0.00218988582492,0.0101743685082,-0.00875666551292,0.0272035915405,-0.086507178843,0.659882724285,0.0,0.0,0.0
84041117,-0.576517343521,-0.879008352757,-9.63192081451,0.00502281403169,0.00920241139829,-0.0115690426901,0.0772490724921,-0.148882210255,0.515779316425,0.0,0.0,0.0
84045251,-0.586066305637,-0.639290690422,-9.58743286133,0.00336985429749,0.0130145642906,-0.009431341663,0.0772490724921,-0.148882210255,0.515779316425,0.0,0.0,0.0
84049020,-0.725843429565,-0.656728684902,-9.35507297516,-0.00740224309266,-0.00309634651057,-0.0106992693618,0.0587056651711,-0.110131315887,0.642245233059,0.0,0.0,0.0
84053095,-0.969509840012,-0.730384707451,-9.49171352386,-0.0116788214073,-0.0195581372827,-0.0107748089358,0.0587056651711,-0.110131315887,0.642245233059,0.0,0.0,0.0
84053095,-0.969509840012,-0.730384707451,-9.49171352386,-0.0116788214073,-0.0195581372827,-0.0107748089358,0.0587056651711,-0.110131315887,0.642245233059,0.0,0.0,0.0
84057843,-1.04479563236,-1.06285870075,-9.85767269135,-0.00798506289721,-0.0212044548243,-0.0035746737849,0.0587056651711,-0.110131315887,0.642245233059,0.0,0.0,0.0
84061652,-1.17798554897,-1.29099154472,-10.2791261673,-0.00357297272421,-0.00920127239078,0.00127115251962,0.0445167459548,-0.150988444686,0.56141859293,0.0,0.0,0.0
84065297,-0.956189095974,-1.34787642956,-10.0539550781,0.00472892308608,0.0171601679176,0.00255430140533,0.0445167459548,-0.150988444686,0.56141859293,0.0,0.0,0.0
84069313,-0.707664728165,-1.01653218269,-9.90828800201,0.00931901019067,0.0245334114879,0.00250757625327,0.0613287873566,-0.123717710376,0.585628032684,0.0,0.0,0.0
84073368,-0.402534395456,-0.728841304779,-9.84825229645,0.0108282351866,0.0393402613699,0.00439820438623,0.0613287873566,-0.123717710376,0.585628032684,0.0,0.0,0.0
84077056,-0.155075475574,-0.566246211529,-9.40443134308,0.00598377874121,0.0368132181466,0.00199484708719,0.0613287873566,-0.123717710376,0.585628032684,0.0,0.0,0.0
84089019,-0.47068208456,-1.35381746292,-9.49887752533,-0.0183891113847,-0.0155841931701,-0.0110396603122,0.0910701900721,-0.175753340125,0.536748230457,0.0,0.0,0.0
84093280,-0.615225017071,-1.55932402611,-9.61367893219,-0.0130656175315,-0.0167949646711,-0.0134127866477,0.0910701900721,-0.175753340125,0.536748230457,0.0,0.0,0.0
84096966,-0.726855516434,-1.51411867142,-9.79937744141,0.00119932077359,-0.0101962340996,-0.000986814964563,0.0910701900721,-0.175753340125,0.536748230457,0.0,0.0,0.0
84101402,-0.708617925644,-1.17744481564,-9.90912723541,0.0169534310699,0.00402438780293,0.00595754291862,-0.00617312500253,-0.0810907259583,0.651577949524,0.0,0.0,0.0
84105626,-0.729659020901,-0.815091967583,-9.72308349609,0.0213993825018,0.0120852328837,0.00766331981868,-0.00617312500253,-0.0810907259583,0.651577949524,0.0,0.0,0.0
84105626,-0.729659020901,-0.815091967583,-9.72308349609,0.0213993825018,0.0120852328837,0.00766331981868,-0.00617312500253,-0.0810907259583,0.651577949524,0.0,0.0,0.0
84109154,-0.574014246464,-0.584274768829,-9.56069374084,0.00716961640865,0.00549128837883,-0.000981510733254,0.0973540395498,-0.176534116268,0.474638968706,0.0,0.0,0.0
84117537,-0.926181674004,-0.799991130829,-9.6587228775,-0.0211687199771,-0.00912376493216,-0.0144412694499,0.0973540395498,-0.176534116268,0.474638968706,0.0,0.0,0.0
84121669,-1.11545729637,-1.12348651886,-9.71987819672,-0.0247456189245,-0.0138652380556,-0.0193695295602,0.0242997519672,-0.0880753621459,0.64875048399,0.0,0.0,0.0
84125072,-1.1966022253,-1.36510741711,-10.0223922729,-0.0110146254301,-0.00403855089098,-0.00634735496715,0.0242997519672,-0.0880753621459,0.64875048399,0.0,0.0,0.0
84130639,-1.10801398754,-1.46540594101,-10.1623029709,0.00620008632541,0.0170241389424,0.0064418730326,0.0609688907862,-0.130278944969,0.518390834332,0.0,0.0,0.0
84133230,-0.856057465076,-1.09208893776,-9.89960670471,0.0204312540591,0.032365847379,0.0105149634182,0.0609688907862,-0.130278944969,0.518390834332,0.0,0.0,0.0
84136940,-0.324889570475,-0.804813802242,-9.67114543915,0.0271287951618,0.0306919533759,0.0231337230653,0.0609688907862,-0.130278944969,0.518390834332,0.0,0.0,0.0
84142352,0.146637231112,-0.424905866385,-9.38295555115,0.00539170857519,0.0245199277997,0.00365450931713,0.0959665253758,-0.122793734074,0.585177540779,0.0,0.0,0.0
84145823,0.0566234625876,-0.686453819275,-9.28474140167,-0.0139745362103,0.0105994837359,-0.00974180269986,0.0959665253758,-0.122793734074,0.585177540779,0.0,0.0,0.0
84149741,-0.0522573068738,-1.11666440964,-9.157289505,-0.0275339093059,-0.00886657740921,-0.0248624794185,0.0204240623862,-0.104686751962,0.657952725887,0.0,0.0,0.0
84154513,-0.422006547451,-1.24877643585,-9.5319776535,-0.0280216559768,-0.0263990536332,-0.0268327370286,0.0204240623862,-0.104686751962,0.657952725887,0.0,0.0,0.0
84154513,-0.422006547451,-1.24877643585,-9.5319776535,-0.0280216559768,-0.0263990536332,-0.0268327370286,0.0204240623862,-0.104686751962,0.657952725887,0.0,0.0,0.0
84157939,-0.769650995731,-1.61809241772,-9.81070041656,-0.00977863837034,-0.0174715537578,-0.00925866886973,0.0204240623862,-0.104686751962,0.657952725887,0.0,0.0,0.0
84161813,-1.02049815655,-1.49874448776,-9.7132024765,0.00592817366123,-0.00669746147469,-0.00620874110609,0.0951729491353,-0.176486685872,0.516859352589,0.0,0.0,0.0
84166526,-1.03446733952,-1.13563013077,-9.88233947754,0.0231089424342,-0.00537206139416,0.0104345297441,0.0951729491353,-0.176486685872,0.516859352589,0.0,0.0,0.0
84170043,-0.772365570068,-0.659982740879,-9.85520648956,0.0214460268617,0.00718543864787,0.0126512302086,0.012470331043,-0.0986914858222,0.673143208027,0.0,0.0,0.0
84178449,-0.745854437351,-0.602085471153,-9.5695104599,-0.0100499102846,0.00339590501972,-0.00558592844754,0.012470331043,-0.0986914858222,0.673143208027,0.0,0.0,0.0
84190397,-1.03663766384,-1.42800068855,-9.94967079163,-0.00917016156018,0.0154815092683,-0.00824831333011,0.0481480509043,-0.119088724256,0.553092718124,0.0,0.0,0.0
84193849,-0.994414031506,-1.4081043005,-9.801612854,0.010357696563,0.016907369718,0.00302295945585,0.0481480509043,-0.119088724256,0.553092718124,0.0,0.0,0.0
84197749,-0.67137914896,-1.10520207882,-9.82413005829,0.0195583067834,0.0229269620031,0.0146605977789,0.0481480509043,-0.119088724256,0.553092718124,0.0,0.0,0.0
84202748,-0.185290664434,-0.73049902916,-9.56227970123,0.0151385422796,0.0286285616457,0.0114999655634,0.0248545892537,-0.0806288421154,0.60451900959,0.0,0.0,0.0
84205849,-0.0610650554299,-0.665345847607,-9.40216159821,0.00797807611525,0.0199532471597,0.00644167233258,0.0248545892537,-0.0806288421154,0.60451900959,0.0,0.0,0.0
84209690,0.143581867218,-0.750618338585,-9.09504413605,-0.00818759761751,0.00300374231301,-0.00431879516691,0.1089316383,-0.157216504216,0.515531778336,0.0,0.0,0.0
84214607,0.0301158614457,-0.823737084866,-9.30764293671,-0.0235025119036,-0.0192240811884,-0.0214315876365,0.1089316383,-0.157216504216,0.515531778336,0.0,0.0,0.0
84214607,0.0301158614457,-0.823737084866,-9.30764293671,-0.0235025119036,-0.0192240811884,-0.0214315876365,0.1089316383,-0.157216504216,0.515531778336,0.0,0.0,0.0
84218122,-0.249190807343,-1.28389203548,-9.6378660202,-0.0238789506257,-0.0161733478308,-0.0185787379742,0.1089316383,-0.157216504216,0.515531778336,0.0,0.0,0.0
84222234,-0.76590692997,-1.54384279251,-9.63152503967,-0.0140931522474,-0.0122179323807,-0.018606306985,0.0379444248974,-0.0882734805346,0.660859107971,0.0,0.0,0.0
84226437,-1.13370847702,-1.37075471878,-9.84480476379,0.000805189483799,-0.0122189912945,-0.0109420167282,0.0379444248974,-0.0882734805346,0.660859107971,0.0,0.0,0.0
84229802,-1.0992667675,-1.11692452431,-9.92388248444,0.0136950453743,-0.00405887560919,0.00341756176203,0.0556315518916,-0.147068053484,0.565863251686,0.0,0.0,0.0
84233731,-1.12173819542,-0.601969480515,-9.84171867371,0.010690276511,0.00669603282586,0.00130848854315,0.0556315518916,-0.147068053484,0.565863251686,0.0,0.0,0.0
84238330,-1.03525626659,-0.659469783306,-9.69003677368,0.0117512689903,0.00763262342662,0.0110842762515,0.0556315518916,-0.147068053484,0.565863251686,0.0,0.0,0.0
84242438,-0.695847332478,-0.554948747158,-9.58520126343,-0.00619925465435,-0.00200230651535,-0.00603160308674,0.0801458880305,-0.15825086832,0.566938281059,0.0,0.0,0.0
84250383,-0.707013428211,-1.21483898163,-10.0315694809,-0.0116094984114,0.0176807325333,-0.00387548678555,-0.00667907856405,-0.101316548884,0.64353454113,0.0,0.0,0.0
84253867,-0.761210680008,-1.37209403515,-9.7064704895,-0.00990066397935,0.0241190809757,-0.013862897642,-0.00667907856405,-0.101316548884,0.64353454113,0.0,0.0,0.0
84257720,-0.623359084129,-1.21946930885,-9.81121635437,0.00170172739308,0.0207237135619,-0.00326555571519,-0.00667907856405,-0.101316548884,0.64353454113,0.0,0.0,0.0
84262771,-0.320094704628,-0.978954076767,-9.52010726929,0.0034350915812,0.0232384055853,9.1737740604e-07,0.0733646899462,-0.156022205949,0.49972230196,0.0,0.0,0.0
84262771,-0.320094704628,-0.978954076767,-9.52010726929,0.0034350915812,0.0232384055853,9.1737740604e-07,0.0733646899462,-0.156022205949,0.49972230196,0.0,0.0,0.0
84266149,-0.38883009553,-0.780206918716,-9.38494205475,0.00990995392203,0.0158010348678,0.00758800050244,0.0733646899462,-0.156022205949,0.49972230196,0.0,0.0,0.0
84269998,-0.12189733237,-0.939193308353,-9.15529441833,0.00822215527296,0.00302541139536,0.00883988663554,0.0615038648248,-0.122465133667,0.586215257645,0.0,0.0,0.0
84274190,0.0456974394619,-0.762398540974,-9.43188095093,-0.00179751811083,-0.0183389987797,-0.00412469077855,0.0615038648248,-0.122465133667,0.586215257645,0.0,0.0,0.0
84277824,-0.0850330963731,-1.0808750391,-9.66385746002,-0.0106509169564,-0.0105778994039,-0.00420485064387,0.0615038648248,-0.122465133667,0.586215257645,0.0,0.0,0.0
84282390,-0.399233013391,-1.2867064476,-9.59402179718,-0.0162401776761,-0.0035630078055,-0.0199466366321,0.0154349384829,-0.0927737727761,0.625005066395,0.0,0.0,0.0
84286473,-0.855389535427,-1.29718577862,-9.64388561249,-0.0118982903659,-0.00741993729025,-0.0230411607772,0.0154349384829,-0.0927737727761,0.625005066395,0.0,0.0,0.0
84289844,-0.988680541515,-1.09422254562,-9.80423545837,-0.0059728785418,-0.00900265201926,-0.014805899933,0.100501209497,-0.160199910402,0.501074969769,0.0,0.0,0.0
84293711,-1.20392036438,-0.793047845364,-9.746758461,0.00161981047131,-0.00196581054479,-0.0093156369403,0.100501209497,-0.160199910402,0.501074969769,0.0,0.0,0.0
84298950,-1.30758142471,-0.881497502327,-9.66986942291,0.00979622919112,-0.000949503912125,0.00758337276056,0.0614028126001,-0.111687637866,0.641604363918,0.0,0.0,0.0
84302934,-1.0533863306,-0.707541108131,-9.84823322296,0.00482012331486,-0.0114560555667,0.00377713190392,0.0614028126001,-0.111687637866,0.641604363918,0.0,0.0,0.0
84306592,-0.851923108101,-0.848933041096,-10.0637969971,-0.000800247187726,0.00776040600613,0.0101946061477,0.0614028126001,-0.111687637866,0.641604363918,0.0,0.0,0.0
84311280,-0.647326588631,-1.03680765629,-9.9110956192,-0.00582086853683,0.0275981295854,0.000734181958251,0.0123276589438,-0.11939855665,0.618693828583,0.0,0.0,0.0
84311280,-0.647326588631,-1.03680765629,-9.9110956192,-0.00582086853683,0.0275981295854,0.000734181958251,0.0123276589438,-0.11939855665,0.618693828583,0.0,0.0,0.0
84314595,-0.517803966999,-1.12341237068,-9.75641536713,-0.00289769191295,0.0323975160718,-0.00646205525845,0.0123276589438,-0.11939855665,0.618693828583,0.0,0.0,0.0
84318608,-0.314059525728,-1.13494241238,-9.6558599472,-0.00444001983851,0.0259326845407,-0.00417126575485,0.0320678390563,-0.111754365265,0.656377196312,0.0,0.0,0.0
84324222,-0.164928466082,-0.816648304462,-9.40913009644,-0.00702336197719,0.0237057637423,-0.0125457486138,0.0320678390563,-0.111754365265,0.656377196312,0.0,0.0,0.0
84326613,-0.278217941523,-1.06302595139,-9.24731063843,-0.000177654830622,0.00936708040535,0.00180537847336,0.0320678390563,-0.111754365265,0.656377196312,0.0,0.0,0.0
84330738,-0.166357219219,-1.04166066647,-9.31143951416,0.00288747670129,-0.0114646079019,-0.00218325899914,0.0183293893933,-0.11126870662,0.602670550346,0.0,0.0,0.0
84335115,-0.260999858379,-1.018892169,-9.55236053467,0.00303621054627,-0.024263933301,0.00266170711257,0.0183293893933,-0.11126870662,0.602670550346,0.0,0.0,0.0
84338806,-0.345352739096,-1.19302690029,-9.72193813324,-0.000901663384866,-0.0102221174166,0.0020205352921,0.09820818156,-0.1755348593,0.475526303053,0.0,0.0,0.0
84342860,-0.551110804081,-1.13327980042,-9.57400226593,-0.00756011204794,0.00213941023685,-0.0139143923298,0.09820818156,-0.1755348593,0.475526303053,0.0,0.0,0.0
84346871,-0.742586374283,-1.13873171806,-9.72713088989,-0.00519879348576,-0.0035773718264,-0.0118290213868,0.09820818156,-0.1755348593,0.475526303053,0.0,0.0,0.0
84350629,-0.800732553005,-0.825300574303,-9.80907249451,-0.00916394591331,-0.00413291202858,-0.014284866862,0.0477795861661,-0.0944410860538,0.647843301296,0.0,0.0,0.0
84354605,-1.10118424892,-0.796543776989,-9.68414497375,-0.00383550184779,-0.0031857220456,-0.0100795766339,0.0477795861661,-0.0944410860538,0.647843301296,0.0,0.0,0.0
84354605,-1.10118424892,-0.796543776989,-9.68414497375,-0.00383550184779,-0.0031857220456,-0.0100795766339,0.0477795861661,-0.0944410860538,0.647843301296,0.0,0.0,0.0
84359286,-1.25214731693,-0.937718212605,-9.66766643524,-0.000203606308787,-0.00751822069287,-0.00247156922705,0.0244485605508,-0.111639745533,0.589821517467,0.0,0.0,0.0
84371318,-0.975456953049,-1.07503449917,-9.92454051971,-0.00110170198604,0.0304710119963,0.00308583118021,0.107235133648,-0.164185896516,0.4904704988,0.0,0.0,0.0
84374693,-0.74134761095,-1.05741405487,-9.73041629791,-0.00128506531473,0.0349989198148,-0.00137508858461,0.107235133648,-0.164185896516,0.4904704988,0.0,0.0,0.0
84378558,-0.338507443666,-0.97983288765,-9.64330101013,-0.00404457328841,0.0331228673458,-0.00340344617143,0.0498379170895,-0.100966632366,0.658920884132,0.0,0.0,0.0
84384308,0.0346834734082,-0.801601469517,-9.34471702576,-0.00566933024675,0.0232505314052,-0.00575787620619,0.0498379170895,-0.100966632366,0.658920884132,0.0,0.0,0.0
84390583,0.0227191150188,-1.08302938938,-9.2963886261,-0.000208277750062,-0.0104421954602,-0.00302550848573,0.0157668720931,-0.116795234382,0.624423086643,0.0,0.0,0.0
84398689,-0.34300839901,-1.17263245583,-9.7410697937,-0.00288091553375,-0.00646749977022,-0.0039639910683,0.0802615582943,-0.176188156009,0.496676534414,0.0,0.0,0.0
84402635,-0.574269592762,-1.13360571861,-9.57001113892,-0.00731046358123,0.00324865244329,-0.0117737278342,0.0802615582943,-0.176188156009,0.496676534414,0.0,0.0,0.0
84407274,-0.865015983582,-1.07938182354,-9.61364269257,-0.00962403044105,5.16948202858e-05,-0.0170579236001,0.0802615582943,-0.176188156009,0.496676534414,0.0,0.0,0.0
84414480,-1.06365036964,-0.662107765675,-9.64995288849,-0.000374522584025,-0.00934293121099,-0.00491492589936,0.0635579377413,-0.120803363621,0.580600500107,0.0,0.0,0.0
84419383,-1.16208124161,-0.871606588364,-9.74895954132,0.00625056633726,-0.0128251463175,0.00388583447784,0.0151325138286,-0.0913134366274,0.636570930481,0.0,0.0,0.0
84423554,-1.16821861267,-1.03272473812,-10.1054649353,0.00418417621404,-0.0140547677875,0.00173566432204,0.0151325138286,-0.0913134366274,0.636570930481,0.0,0.0,0.0
84426624,-1.08156716824,-1.08490526676,-10.3059072495,0.000288737210212,0.00253698113374,0.00376306357794,0.0151325138286,-0.0913134366274,0.636570930481,0.0,0.0,0.0
84426624,-1.08156716824,-1.08490526676,-10.3059072495,0.000288737210212,0.00253698113374,0.00376306357794,0.0151325138286,-0.0913134366274,0.636570930481,0.0,0.0,0.0
84431292,-0.909725606441,-1.04336631298,-9.99186897278,-0.000597826088779,0.035689663142,0.000500934082083,0.0714942514896,-0.137624531984,0.506747305393,0.0,0.0,0.0
84434501,-0.741210639477,-1.02089035511,-9.63025951385,-0.00487515097484,0.0465632230043,-0.00580048002303,0.0714942514896,-0.137624531984,0.506747305393,0.0,0.0,0.0
84438619,-0.460426837206,-0.886267542839,-9.41921520233,-0.00546907167882,0.0350498072803,-0.00694422097877,0.108266361058,-0.145032078028,0.54912263155,0.0,0.0,0.0
84442944,-0.130020186305,-0.792541384697,-9.16657543182,-0.00638071401045,0.0175502225757,-0.00300062191673,0.108266361058,-0.145032078028,0.54912263155,0.0,0.0,0.0
84446610,0.0331784673035,-0.999812722206,-9.28074836731,0.00246794242412,-0.0032305624336,0.00799177680165,0.108266361058,-0.145032078028,0.54912263155,0.0,0.0,0.0
84450546,0.0891235172749,-1.32943344116,-9.39801311493,0.00253656855784,-0.0123331332579,0.0055442135781,0.0171381011605,-0.0908370763063,0.699551463127,0.0,0.0,0.0
84455170,0.0292751807719,-1.28122830391,-9.85815143585,0.00137032405473,-0.0229962952435,-0.00235168868676,0.0171381011605,-0.0908370763063,0.699551463127,0.0,0.0,0.0
84458592,-0.268914103508,-1.26020801067,-9.94715213776,0.00280904513784,-0.000719194998965,0.00132424302865,0.0306385904551,-0.140759781003,0.567517697811,0.0,0.0,0.0
84462744,-0.464087873697,-1.03480911255,-9.30525016785,-0.0106798028573,0.0129108019173,-0.0234568845481,0.0306385904551,-0.140759781003,0.567517697811,0.0,0.0,0.0
84467550,-0.774036705494,-0.845727205276,-9.44844532013,-0.0154037475586,-0.00207338109612,-0.0213990788907,0.0306385904551,-0.140759781003,0.567517697811,0.0,0.0,0.0
84474558,-1.29131615162,-0.735028326511,-9.65545845032,-0.00118094380014,-0.0199901182204,-0.00272332062013,0.0922339037061,-0.178455904126,0.518615961075,0.0,0.0,0.0
84474558,-1.29131615162,-0.735028326511,-9.65545845032,-0.00118094380014,-0.0199901182204,-0.00272332062013,0.0922339037061,-0.178455904126,0.518615961075,0.0,0.0,0.0
84479255,-1.3607711792,-1.10373616219,-9.80687141418,0.0101528735831,-0.0197927709669,0.0109750535339,0.0373261980712,-0.116323307157,0.609435737133,0.0,0.0,0.0
84483504,-1.13846969604,-1.03190779686,-10.1212511063,0.00451354216784,-0.0151575971395,-0.00052629946731,0.0373261980712,-0.116323307157,0.609435737133,0.0,0.0,0.0
84488146,-1.15821588039,-1.12570059299,-10.6307058334,0.0101302871481,0.018040606752,0.0150109818205,0.0373261980712,-0.116323307157,0.609435737133,0.0,0.0,0.0
84491811,-0.817653536797,-0.948625802994,-9.66378688812,-0.00249716360122,0.0603150315583,-0.00717403460294,0.00932393223047,-0.0784465521574,0.606078147888,0.0,0.0,0.0
84495295,-0.525101304054,-0.702683925629,-9.41490936279,-0.00661638285965,0.0437627546489,-0.00522575201467,0.00932393223047,-0.0784465521574,0.606078147888,0.0,0.0,0.0
84499330,-0.092398263514,-0.703448593616,-9.34877300262,-0.0145533457398,0.0351983569562,-0.0121870236471,0.0782419368625,-0.133977919817,0.51375067234,0.0,0.0,0.0
84503999,-0.105624496937,-0.755762577057,-9.04537391663,-0.00875075254589,0.0102338558063,-0.00546554708853,0.0782419368625,-0.133977919817,0.51375067234,0.0,0.0,0.0
84507435,-0.0467152148485,-1.27292406559,-9.12708187103,0.00301132840104,-0.0141533399001,0.0103316847235,0.0782419368625,-0.133977919817,0.51375067234,0.0,0.0,0.0
84511380,0.0733709409833,-1.34657001495,-9.55370330811,0.00353307649493,-0.0315166302025,-0.00140557356644,0.109465621412,-0.155012726784,0.550697624683,0.0,0.0,0.0
84515647,-0.182322084904,-1.53615987301,-10.3095741272,0.00841159746051,-0.0150206414983,0.00872280169278,0.109465621412,-0.155012726784,0.550697624683,0.0,0.0,0.0
84515647,-0.182322084904,-1.53615987301,-10.3095741272,0.00841159746051,-0.0150206414983,0.00872280169278,0.109465621412,-0.155012726784,0.550697624683,0.0,0.0,0.0
84519431,-0.341502189636,-1.35956025124,-9.72901821136,0.00233418680727,0.0137929273769,-0.00986653380096,0.0230209100991,-0.09210152179,0.688351988792,0.0,0.0,0.0
84523417,-0.603896141052,-0.801294565201,-9.30623245239,-0.00742728356272,0.00788322277367,-0.0214491914958,0.0230209100991,-0.09210152179,0.688351988792,0.0,0.0,0.0
84529251,-0.641851007938,-0.695684075356,-9.53385257721,-0.0146234361455,0.00146189529914,-0.0199635475874,0.0230209100991,-0.09210152179,0.688351988792,0.0,0.0,0.0
84535393,-1.46724224091,-0.958587884903,-9.53927135468,-0.00625479361042,-0.0233866460621,-0.00373185239732,0.0228581242263,-0.122094072402,0.599401831627,0.0,0.0,0.0
84539608,-1.35438454151,-1.1507537365,-9.84415817261,0.00107715220656,-0.0263372473419,-0.00204494106583,0.0744753926992,-0.181405425072,0.500905990601,0.0,0.0,0.0
84543451,-1.34862542152,-1.14050507545,-10.467997551,0.00500655826181,-0.014392433688,0.00414201570675,0.0744753926992,-0.181405425072,0.500905990601,0.0,0.0,0.0
84547272,-1.29032659531,-1.31989622116,-10.573882103,0.0150123024359,0.0260381065309,0.0168707016855,0.0744753926992,-0.181405425072,0.500905990601,0.0,0.0,0.0
84552213,-0.992612123489,-0.937795698643,-9.67726993561,0.00886033475399,0.0512988828123,0.000218279994442,0.0656513348222,-0.132640853524,0.529931843281,0.0,0.0,0.0
84555447,-0.434894859791,-0.651160180569,-9.45289325714,-0.00188213796355,0.045248016715,-0.00143090169877,0.0656513348222,-0.132640853524,0.529931843281,0.0,0.0,0.0
84559343,0.108308464289,-0.576485991478,-9.38032245636,-0.0102970637381,0.0364494100213,-0.000835487910081,0.0274005569518,-0.0683542191982,0.65443778038,0.0,0.0,0.0
84563764,0.0260510779917,-0.818123996258,-9.02134990692,-0.0128956371918,0.013503360562,-0.00485735945404,0.0274005569518,-0.0683542191982,0.65443778038,0.0,0.0,0.0
84567566,0.104796528816,-1.17686390877,-9.13170814514,-0.00377625529654,-0.0111783649772,-0.00145144877024,0.0274005569518,-0.0683542191982,0.65443778038,0.0,0.0,0.0
84571314,0.256188869476,-1.26553475857,-9.42645645142,-0.00232908688486,-0.0261385403574,-0.00869113765657,0.0439105220139,-0.113780669868,0.592558681965,0.0,0.0,0.0
84575954,-0.168498903513,-1.4446811676,-10.1546354294,0.00589082250372,-0.0201640725136,0.00148871354759,0.0439105220139,-0.113780669868,0.592558681965,0.0,0.0,0.0
84579671,-0.437177211046,-1.41591787338,-9.69404029846,0.00679450854659,0.00371536496095,-0.00559372967109,0.104911953211,-0.178697556257,0.510860621929,0.0,0.0,0.0
84583888,-0.687942624092,-0.848708212376,-9.26472759247,-0.00274091935717,-0.00212627113797,-0.0230465121567,0.104911953211,-0.178697556257,0.510860621929,0.0,0.0,0.0
84588440,-0.724416673183,-0.667209327221,-9.69773292542,-0.00809855293483,-0.00679952790961,-0.0143036581576,0.104911953211,-0.178697556257,0.510860621929,0.0,0.0,0.0
84591464,-1.02531147003,-0.620337367058,-9.68284988403,-0.0117059862241,-0.00826458539814,-0.0133135952055,0.0742848739028,-0.139968827367,0.60465991497,0.0,0.0,0.0
84612143,-1.06320035458,-1.2339823246,-9.5293340683,0.00390829425305,0.0488263852894,-0.000871246913448,0.0105440206826,-0.110524453223,0.568956494331,0.0,0.0,0.0
84615277,-0.605235695839,-0.77145588398,-9.39723110199,-0.00418277503923,0.0390939936042,-0.00608166307211,0.0105440206826,-0.110524453223,0.568956494331,0.0,0.0,0.0
84619522,0.0566942989826,-0.749127209187,-9.47408294678,-0.00534534966573,0.036442745477,0.00360951526091,0.0945929512382,-0.155546039343,0.469120323658,0.0,0.0,0.0
84624145,-0.0649375170469,-0.875651359558,-9.12281417847,-0.00817121379077,0.0161880608648,-0.000855300575495,0.0945929512382,-0.155546039343,0.469120323658,0.0,0.0,0.0
84627467,0.0626593083143,-1.15360796452,-9.21977329254,0.00346013880335,-0.00395189039409,0.0102697648108,0.0945929512382,-0.155546039343,0.469120323658,0.0,0.0,0.0
84627467,0.0626593083143,-1.15360796452,-9.21977329254,0.00346013880335,-0.00395189039409,0.0102697648108,0.0945929512382,-0.155546039343,0.469120323658,0.0,0.0,0.0
84631398,0.518303930759,-1.13673615456,-9.24311447144,-0.00317442277446,-0.0278688259423,-0.00581455696374,0.0932013913989,-0.130731612444,0.579267561436,0.0,0.0,0.0
84635966,0.0127538414672,-1.2143791914,-10.3411083221,0.00373944314197,-0.021984461695,0.0066254157573,0.0932013913989,-0.130731612444,0.579267561436,0.0,0.0,0.0
84639433,-0.308900147676,-1.53599381447,-9.73168563843,0.00157948175911,0.0143063850701,-0.00588210346177,0.0369060412049,-0.0903032422066,0.65850263834,0.0,0.0,0.0
84643409,-0.702500522137,-0.86098998785,-9.2028875351,-0.0142344906926,-0.00399210257456,-0.0352014526725,0.0369060412049,-0.0903032422066,0.65850263834,0.0,0.0,0.0
84647928,-0.866731822491,-0.613225340843,-9.7320098877,-0.0147416945547,-0.00767247891054,-0.0191668178886,0.0369060412049,-0.0903032422066,0.65850263834,0.0,0.0,0.0
84651400,-1.13451778889,-0.639700949192,-9.59140110016,-0.0147543102503,-0.00803449563682,-0.0192602667958,0.0244064908475,-0.104614056647,0.63461214304,0.0,0.0,0.0
84655455,-1.79489421844,-0.929609835148,-9.6791677475,-0.000981746823527,-0.0147264497355,0.00225927261636,0.0244064908475,-0.104614056647,0.63461214304,0.0,0.0,0.0
84660004,-1.26452898979,-1.00109267235,-9.77930259705,0.00879330281168,-0.024611396715,0.00303044635803,0.0665532946587,-0.178247243166,0.519144177437,0.0,0.0,0.0
84663956,-1.24315488338,-0.961919009686,-10.653295517,0.0104844728485,-0.0132882315665,0.0131501881406,0.0665532946587,-0.178247243166,0.519144177437,0.0,0.0,0.0
84667606,-1.1067661047,-1.30449914932,-10.6167640686,0.0136847924441,0.04229805246,0.0162780620158,0.0665532946587,-0.178247243166,0.519144177437,0.0,0.0,0.0
84671799,-0.89021384716,-1.09795570374,-9.60532093048,-0.000311140523991,0.0519509278238,-0.00516406912357,0.0771958082914,-0.167837187648,0.518788456917,0.0,0.0,0.0
84675310,-0.464470207691,-0.700743436813,-9.42795085907,-0.0126026272774,0.0441975221038,-0.0179250519723,0.0771958082914,-0.167837187648,0.518788456917,0.0,0.0,0.0
84675310,-0.464470207691,-0.700743436813,-9.42795085907,-0.0126026272774,0.0441975221038,-0.0179250519723,0.0771958082914,-0.167837187648,0.518788456917,0.0,0.0,0.0
84679345,0.019568156451,-0.606602549553,-9.17922019958,-0.0189222898334,0.0381499044597,-0.0115025406703,0.0385010838509,-0.0916617959738,0.608662247658,0.0,0.0,0.0
84683987,-0.118699871004,-0.992138147354,-8.95802402496,-0.0113007100299,0.0117192072794,0.00128179555759,0.0385010838509,-0.0916617959738,0.608662247658,0.0,0.0,0.0
84687953,0.00141493417323,-1.35587334633,-8.99998950958,0.00317376968451,-0.0187793299556,0.00641820952296,0.0385010838509,-0.0916617959738,0.608662247658,0.0,0.0,0.0
84692827,0.27460873127,-1.36461818218,-9.7608833313,0.0117865689099,-0.0377170443535,0.0102101387456,0.0480977259576,-0.125077426434,0.556384384632,0.0,0.0,0.0
84696349,0.00834710057825,-1.52686238289,-10.2823410034,0.0144424876198,-0.00680072093382,0.0117896916345,0.0480977259576,-0.125077426434,0.556384384632,0.0,0.0,0.0
84700270,-0.386523872614,-1.24719834328,-9.66054439545,0.00439419038594,0.0149342585355,-0.0122591014951,0.102837853134,-0.176359429955,0.506404876709,0.0,0.0,0.0
84704971,-0.581298708916,-0.757784903049,-9.29411888123,-0.0137388734147,0.00674616685137,-0.0326382517815,0.102837853134,-0.176359429955,0.506404876709,0.0,0.0,0.0
84708289,-0.808829367161,-0.366597443819,-9.33237075806,-0.030665833503,-0.00493465736508,-0.0351455397904,0.0760188922286,-0.152902707458,0.584491372108,0.0,0.0,0.0
84712308,-1.39206218719,-0.561322391033,-9.46860790253,-0.0225234888494,-0.0138798952103,-0.02193162404,0.0760188922286,-0.152902707458,0.584491372108,0.0,0.0,0.0
84717592,-1.81989431381,-1.18473005295,-9.62249851227,-0.0027244433295,-0.030993655324,0.00456152297556,0.0760188922286,-0.152902707458,0.584491372108,0.0,0.0,0.0
84720616,-1.63716781139,-1.18983471394,-10.1501893997,0.00854852516204,-0.0348678641021,0.00302210403606,0.0182064343244,-0.110812738538,0.639668345451,0.0,0.0,0.0
84728984,-1.15583729744,-1.28328597546,-10.525841713,0.0195489712059,0.0566913746297,0.0151401814073,0.00131469406188,-0.0779705420136,0.632202029228,0.0,0.0,0.0
84728984,-1.15583729744,-1.28328597546,-10.525841713,0.0195489712059,0.0566913746297,0.0151401814073,0.00131469406188,-0.0779705420136,0.632202029228,0.0,0.0,0.0
84732436,-0.694194793701,-0.812127709389,-9.5787858963,0.00729648629203,0.0675787180662,-0.000478293019114,0.00131469406188,-0.0779705420136,0.632202029228,0.0,0.0,0.0
84736166,-0.119901441038,-0.407103002071,-9.08796596527,-0.0132055049762,0.0567656606436,-0.0135310320184,0.00131469406188,-0.0779705420136,0.632202029228,0.0,0.0,0.0
84740543,0.401010125875,-0.337902605534,-8.68995571136,-0.0302719417959,0.031647875905,-0.0180887840688,0.0629021376371,-0.14126239717,0.533698797226,0.0,0.0,0.0
84744453,0.104303449392,-0.964744150639,-8.93440246582,-0.0162725765258,-0.0098618529737,-0.000691566383466,0.0629021376371,-0.14126239717,0.533698797226,0.0,0.0,0.0
84748268,0.182195007801,-1.53156232834,-9.20087337494,-0.00107613904402,-0.0348969362676,0.0042745731771,0.0969229862094,-0.161912083626,0.506374537945,0.0,0.0,0.0
84752915,0.115434072912,-1.69088435173,-10.0210227966,0.0126409325749,-0.0477462559938,0.00966239068657,0.0969229862094,-0.161912083626,0.506374537945,0.0,0.0,0.0
84756222,-0.104624055326,-1.5607714653,-10.374874115,0.0144471814856,-0.00435393117368,0.00511990301311,0.0969229862094,-0.161912083626,0.506374537945,0.0,0.0,0.0
84760214,-0.540476381779,-1.2437107563,-9.80753803253,0.0111472653225,0.0176176410168,-0.00733385747299,0.0976987183094,-0.136936202645,0.564832448959,0.0,0.0,0.0
84764481,-0.688034236431,-0.527493178844,-9.34364700317,-0.0122185656801,0.0136826885864,-0.0355241149664,0.0976987183094,-0.136936202645,0.564832448959,0.0,0.0,0.0
84768884,-0.871827125549,-0.11699667573,-9.04791355133,-0.024518109858,-0.00107119802851,-0.031150598079,0.0310601759702,-0.099355340004,0.681402385235,0.0,0.0,0.0
84772324,-1.26943051815,-0.355578094721,-9.3791437149,-0.0228145699948,-0.018584176898,-0.0196085292846,0.0310601759702,-0.099355340004,0.681402385235,0.0,0.0,0.0
84772324,-1.26943051815,-0.355578094721,-9.3791437149,-0.0228145699948,-0.018584176898,-0.0196085292846,0.0310601759702,-0.099355340004,0.681402385235,0.0,0.0,0.0
84776893,-1.649979949,-1.15832436085,-9.72139263153,-0.00557945342734,-0.0419632568955,0.00256410287693,0.0310601759702,-0.099355340004,0.681402385235,0.0,0.0,0.0
84780587,-1.7167454958,-1.45135962963,-10.51537323,0.0101682459936,-0.037345059216,0.0129001364112,-0.00229547265917,-0.108570531011,0.618142545223,0.0,0.0,0.0
84800822,0.315777629614,-0.137376606464,-8.4126367569,-0.0245632026345,0.0327180176973,-0.0115515869111,0.0966923311353,-0.172571927309,0.492292642593,0.0,0.0,0.0
84804442,0.540994524956,-0.802797198296,-8.68569278717,-0.0124295912683,-0.0215257648379,0.00162560294848,0.0966923311353,-0.172571927309,0.492292642593,0.0,0.0,0.0
84808248,0.267390340567,-1.56656050682,-9.39385032654,-0.00221169646829,-0.0549207031727,0.00823568180203,0.0913567766547,-0.145422786474,0.556218028069,0.0,0.0,0.0
84812504,0.209382906556,-2.00561618805,-10.2518205643,0.0170806758106,-0.0506720021367,0.015193561092,0.0913567766547,-0.145422786474,0.556218028069,0.0,0.0,0.0
84816236,-0.0790874883533,-1.73065316677,-10.3063640594,0.0110265566036,-0.00788945239037,-0.00692146737128,0.0913567766547,-0.145422786474,0.556218028069,0.0,0.0,0.0
84820154,-0.55195915699,-1.23034417629,-10.1500034332,0.0094932904467,0.0160488151014,-0.011496742256,0.0597715675831,-0.0983975604177,0.630971968174,0.0,0.0,0.0
84824997,-0.822255313396,-0.462563693523,-9.51147270203,-0.0103142401204,0.0285462103784,-0.0339875407517,0.0597715675831,-0.0983975604177,0.630971968174,0.0,0.0,0.0
84832306,-1.25892806053,-0.108011975884,-9.14227104187,-0.0224175080657,-0.0190913453698,-0.0176310595125,0.0137636717409,-0.0905408114195,0.691923379898,0.0,0.0,0.0
84840538,-1.67764353752,-1.5575530529,-10.6583328247,0.00952828023583,-0.0413564816117,0.0182768125087,0.0115132583305,-0.126690119505,0.564651072025,0.0,0.0,0.0
84844218,-1.45026123524,-1.81150245667,-10.7672338486,0.0184103175998,0.00545174162835,0.0170355532318,0.0115132583305,-0.126690119505,0.564651072025,0.0,0.0,0.0
84844218,-1.45026123524,-1.81150245667,-10.7672338486,0.0184103175998,0.00545174162835,0.0170355532318,0.0115132583305,-0.126690119505,0.564651072025,0.0,0.0,0.0
84848963,-1.20463204384,-1.44754266739,-10.6325302124,0.0159623231739,0.0521675907075,0.00664099492133,0.0584559701383,-0.148063421249,0.512359023094,0.0,0.0,0.0
84852324,-0.674965381622,-0.919127941132,-9.85984420776,0.00354229961522,0.0848038867116,-0.0041914191097,0.0584559701383,-0.148063421249,0.512359023094,0.0,0.0,0.0
84856221,-0.174331739545,-0.24249304831,-8.76351642609,-0.0113589111716,0.0687969774008,-0.0179191417992,0.0584559701383,-0.148063421249,0.512359023094,0.0,0.0,0.0
84860547,0.263073861599,-0.165831416845,-8.27002716064,-0.0218013282865,0.0310728661716,-0.008434927091,0.099477738142,-0.1720456779,0.500155091286,0.0,0.0,0.0
84864416,0.656956970692,-0.631254255772,-8.5990896225,-0.0139037705958,-0.0237153843045,0.000778962566983,0.099477738142,-0.1720456779,0.500155091286,0.0,0.0,0.0
84868709,0.300469458103,-1.65112698078,-9.50445270538,-0.00224545481615,-0.0541914850473,0.0153841180727,0.0791528746486,-0.131570860744,0.585234999657,0.0,0.0,0.0
